,City,Cloudiness,Country,Date,Humidity,Lat,Lng,Max Temp,Wind Speed
0,Miracema,24,BR,1547351053,89,-21.41,-42.2,72.09,6.06
1,Saskylakh,0,RU,1547351053,0,71.97,114.09,-55.9,4.27
2,Labytnangi,76,RU,1547351053,76,66.66,66.39,5.04,13.6
3,Vardo,90,US,1547349600,95,39.62,-77.74,30.2,3.36
4,Gushikawa,90,JP,1547348400,53,26.35,127.87,71.6,12.75
5,Khatanga,64,RU,1547351061,49,71.98,102.47,-29.53,7.11
6,Upernavik,32,GL,1547350982,100,72.79,-56.15,-5.77,9.35
7,Hermon,88,GB,1547347800,93,51.96,-4.61,50.0,19.46
8,Shangrao,56,CN,1547351062,91,28.45,117.97,48.51,3.38
9,Qaanaaq,0,GL,1547351062,66,77.48,-69.36,-22.87,10.92
10,Tuktoyaktuk,20,CA,1547348400,66,69.44,-133.03,-31.01,10.29
11,Fukuma,75,JP,1547348400,71,33.77,130.47,53.6,6.93
12,Toyo,36,PH,1547351062,93,10.73,125.02,79.65,6.33
13,Kutum,0,SD,1547351068,69,14.2,24.66,47.7,1.52
14,Busselton,0,AU,1547350979,86,-33.64,115.35,72.36,18.07
15,Wanning,75,AT,1547349600,96,48.64,13.53,33.8,8.05
16,Barrow,88,AR,1547350710,97,-38.31,-60.23,63.54,10.13
17,Grindavik,20,IS,1547350200,80,63.84,-22.43,33.8,16.11
18,Karachi,12,PK,1547346300,58,24.87,67.03,57.2,10.29
19,Bacolod,64,PH,1547351080,81,10.68,122.95,80.37,10.36
20,Hobart,0,AU,1547348400,28,-42.88,147.33,71.6,14.99
21,Stolac,20,BA,1547348400,74,43.08,17.95,41.0,3.36
22,Yellowknife,5,CA,1547348400,75,62.45,-114.38,-14.81,8.05
23,Mataura,76,NZ,1547350970,86,-46.19,168.86,59.49,8.75
24,Lusambo,92,CD,1547351081,100,-4.97,23.44,68.85,2.82
25,Palimbang,75,PH,1547348400,61,14.9,120.78,89.6,4.7
26,Gainesville,75,US,1547349300,82,29.65,-82.33,64.04,5.82
27,Butaritari,56,KI,1547351054,100,3.07,172.79,82.98,7.56
28,Vaini,0,IN,1547348400,56,15.34,74.49,71.6,6.93
29,Severo-Kurilsk,80,RU,1547351082,95,50.68,156.12,33.3,17.36
30,Ozinki,48,RU,1547351082,91,51.2,49.73,21.24,10.25
31,Carnarvon,0,ZA,1547351092,94,-30.97,22.13,50.31,6.22
32,Bolshaya Glushitsa,76,RU,1547351092,86,50.24,43.59,14.85,9.31
33,Port Alfred,32,ZA,1547351095,92,-33.59,26.89,67.41,7.74
34,Silopi,92,IQ,1547351095,71,37.25,42.47,32.04,5.06
35,Paita,20,PE,1547351096,75,-5.09,-81.11,74.34,9.8
36,Yulara,0,AU,1547348400,8,-25.24,130.99,109.4,13.87
37,Thompson,90,CA,1547348400,85,55.74,-97.86,14.0,9.17
38,Dunedin,64,NZ,1547351100,94,-45.87,170.5,59.76,4.72
39,Sao Jose da Coroa Grande,92,BR,1547351100,100,-8.9,-35.15,73.89,5.1
40,Rikitea,80,PF,1547350981,99,-23.12,-134.97,79.29,13.6
41,Tura,0,IN,1547351100,77,25.52,90.21,61.02,3.49
42,Mbala,80,ZM,1547351101,97,-8.85,31.37,60.66,2.75
43,Punta Arenas,75,CL,1547348400,65,-53.16,-70.91,46.4,29.97
44,Jamestown,0,AU,1547351102,25,-33.21,138.6,89.46,9.24
45,Hermanus,32,ZA,1547350977,81,-34.42,19.24,57.69,9.42
46,Ilulissat,75,GL,1547347800,52,69.22,-51.1,-7.61,4.7
47,Ushuaia,75,AR,1547348400,70,-54.81,-68.31,44.6,28.86
48,Narsaq,80,GL,1547347800,84,60.91,-46.05,32.0,8.05
49,Caraga,80,PH,1547351103,96,9.0,125.74,76.32,4.88
50,Ponta do Sol,32,BR,1547351105,88,-20.63,-46.0,67.23,3.38
51,Pandan,92,PH,1547351105,100,11.72,122.09,77.22,17.63
52,Clinton,20,US,1547349840,93,30.87,-91.02,60.08,6.93
53,Galveston,90,US,1547350500,85,40.58,-86.19,30.2,17.22
54,Puerto Ayora,20,EC,1547350971,99,-0.74,-90.35,76.68,10.54
55,Palmer,75,US,1547349180,83,61.6,-149.11,14.0,4.7
56,Qostanay,90,KZ,1547348400,92,53.17,63.58,17.6,22.37
57,Kargil,68,PK,1547351126,75,34.56,76.13,-1.09,0.85
58,Cranbrook,90,CA,1547348400,92,49.51,-115.76,30.2,2.24
59,Peto,0,MX,1547350846,57,20.13,-88.92,71.73,5.99
60,Nikolskoye,75,RU,1547348400,92,59.7,30.79,21.2,8.95
61,Masvingo,8,ZW,1547351152,94,-20.08,30.83,62.46,3.04
62,Huanren,0,CN,1547351152,66,41.26,125.37,29.16,2.75
63,Lebu,0,ET,1547350977,53,8.96,38.73,30.06,2.98
64,Atuona,68,PF,1547351152,100,-9.8,-139.03,80.19,15.84
65,Kidal,36,ML,1547351152,15,18.44,1.41,53.37,9.8
66,Ust-Omchug,68,RU,1547351153,52,61.13,149.63,-19.72,3.27
67,Norman Wells,40,CA,1547348400,65,65.28,-126.83,-36.41,6.93
68,Beringovskiy,32,RU,1547351153,92,63.05,179.32,-7.39,26.42
69,Oranjestad,20,AW,1547348400,74,12.52,-70.03,78.8,16.11
70,Hobyo,88,SO,1547351155,79,5.35,48.53,76.41,18.14
71,Kaitangata,100,NZ,1547351156,100,-46.28,169.85,56.07,5.06
72,New Norfolk,0,AU,1547348400,28,-42.78,147.06,71.6,14.99
73,Manubul,8,PH,1547351156,100,5.47,120.8,83.97,6.06
74,Zhangye,0,CN,1547351156,57,38.94,100.46,15.3,2.37
75,Dong Xoai,8,VN,1547351156,80,11.53,106.92,81.99,2.53
76,Kapaa,1,US,1547348160,68,22.08,-159.32,78.98,5.82
77,Longyearbyen,20,NO,1547347800,65,78.22,15.63,6.8,13.87
78,Nanortalik,92,GL,1547350636,94,60.14,-45.24,30.06,20.38
79,Grand Gaube,40,MU,1547348400,78,-20.01,57.66,80.6,11.41
80,Albany,75,US,1547349420,46,42.65,-73.75,17.96,5.82
81,Cidreira,64,BR,1547351157,90,-30.17,-50.22,73.62,13.94
82,Bluff,0,AU,1547351158,42,-23.58,149.07,91.98,10.92
83,Metro,68,ID,1547350862,100,-5.11,105.31,78.93,6.51
84,Nianzishan,8,CN,1547351158,53,47.51,122.88,12.96,4.99
85,Port Elizabeth,90,US,1547350140,92,39.31,-74.98,30.02,3.76
86,Bhatkal,0,IN,1547351158,100,13.97,74.57,78.57,6.89
87,Fairbanks,1,US,1547348280,72,64.84,-147.72,-18.94,4.32
88,Cape Town,40,ZA,1547348400,93,-33.93,18.42,62.6,10.29
89,Crowley,1,US,1547349300,65,30.21,-92.37,59.0,14.99
90,Lukovetskiy,90,RU,1547348400,100,64.29,41.92,23.0,6.71
91,Berlevag,88,NO,1547350977,100,70.86,29.09,27.72,4.09
92,Korgen,90,NO,1547349600,92,66.08,13.83,17.6,2.04
93,Ambilobe,44,MG,1547351161,92,-13.19,49.05,68.31,3.09
94,Mahebourg,40,MU,1547348400,78,-20.41,57.7,80.6,11.41
95,Avarua,75,CK,1547348400,83,-21.21,-159.78,80.6,10.29
96,Williston,90,US,1547350500,100,48.15,-103.62,19.4,3.36
97,Canalete,0,CO,1547351162,100,8.79,-76.24,78.3,9.53
98,Fukue,20,JP,1547350200,57,35.03,136.69,48.2,3.36
99,Sitka,20,US,1547351143,91,37.17,-99.65,28.26,9.31
100,Komsomolskiy,68,RU,1547351164,82,67.55,63.78,5.22,15.17
101,Ribeira Grande,32,PT,1547351164,97,38.52,-28.7,62.01,21.39
102,Taltal,0,CL,1547351164,98,-25.41,-70.49,53.46,1.81
103,Ust-Ilimsk,44,RU,1547351165,59,57.96,102.73,-6.94,7.85
104,Bethel,40,US,1547348160,82,60.79,-161.76,-4.01,17.22
105,Labuhan,76,ID,1547351166,97,-2.54,115.51,76.68,3.04
106,Margate,0,AU,1547348400,28,-43.03,147.26,71.6,14.99
107,Saint-Pierre,90,FR,1547348400,100,48.95,4.24,44.6,14.99
108,Hithadhoo,8,MV,1547351168,100,-0.6,73.08,81.36,5.21
109,Saint George,20,GR,1547347800,74,39.45,22.34,33.8,3.38
110,Barcelos,0,PT,1547348400,86,41.53,-8.62,37.4,4.7
111,Alofi,48,NU,1547348400,74,-19.06,-169.92,84.2,12.75
112,Broken Hill,0,AU,1547348400,15,-31.97,141.45,93.2,10.29
113,Krusevac,0,HR,1547350200,60,43.38,17.11,39.2,5.82
114,Bronnoysund,88,NO,1547349600,100,65.46,12.2,32.0,10.29
115,Port Moresby,40,PG,1547348400,66,-9.47,147.16,87.8,11.41
116,Sao Filipe,20,CV,1547350747,100,14.9,-24.5,71.28,9.08
117,Saint-Philippe,1,CA,1547350500,87,45.36,-73.48,3.2,2.98
118,Nemuro,20,JP,1547348400,58,43.32,145.57,24.8,4.7
119,Santa Vitoria do Palmar,88,BR,1547351172,90,-33.52,-53.37,70.2,12.03
120,Iqaluit,5,CA,1547348400,67,63.75,-68.52,-23.81,14.99
121,La Ronge,75,CA,1547348400,79,55.1,-105.3,19.4,5.82
122,Nome,1,US,1547349300,64,30.04,-94.42,53.06,11.41
123,Mutum,32,BR,1547351172,93,-19.82,-41.44,68.58,4.32
124,Pevek,0,RU,1547351173,71,69.7,170.27,-23.68,4.72
125,Karratha,8,AU,1547351173,15,-20.74,116.85,108.54,10.54
126,Cururupu,56,BR,1547351173,98,-1.82,-44.87,74.16,4.09
127,Georgetown,20,GY,1547348400,94,6.8,-58.16,71.6,4.7
128,Te Anau,32,NZ,1547351174,48,-45.41,167.72,61.74,7.34
129,Flinders,32,AU,1547351176,75,-34.58,150.85,76.59,6.11
130,Chimore,48,BO,1547351176,100,-16.98,-65.13,69.48,2.53
131,Richards Bay,0,ZA,1547351177,99,-28.77,32.06,65.07,2.86
132,Mar del Plata,0,AR,1547351177,48,-46.43,-67.52,55.98,5.99
133,Rocha,0,UY,1547351177,90,-34.48,-54.34,64.71,8.23
134,Victoria,75,BN,1547348400,74,5.28,115.24,86.0,4.7
135,Alta Floresta,88,BR,1547351178,94,-9.87,-56.08,74.97,2.04
136,Sandpoint,1,US,1547349000,78,48.28,-116.55,32.0,9.17
137,Hammerfest,36,NO,1547349600,80,70.66,23.68,30.2,21.92
138,Talnakh,68,RU,1547351179,46,69.49,88.39,-28.99,14.05
139,Shimoda,20,JP,1547348400,53,34.7,138.93,50.0,18.34
140,Cotonou,12,BJ,1547351180,92,6.37,2.43,76.05,3.71
141,Khyriv,76,UA,1547351023,93,49.53,22.85,28.17,12.82
142,Montauban,75,FR,1547348400,75,44.02,1.35,44.6,17.22
143,Pangody,68,RU,1547351134,67,65.85,74.49,-0.82,21.32
144,Porirua,92,NZ,1547350200,68,-41.14,174.84,69.8,19.46
145,Antofagasta,20,CL,1547348400,82,-23.65,-70.4,64.4,10.29
146,Faanui,92,PF,1547350783,100,-16.48,-151.75,82.44,22.32
147,Pimentel,92,BR,1547351182,100,-3.7,-45.5,71.46,2.71
148,Ajdabiya,92,LY,1547351182,94,30.75,20.22,50.13,14.56
149,Abha,0,SA,1547348400,87,18.22,42.5,53.6,9.17
150,Luderitz,12,NA,1547351184,90,-26.65,15.16,59.85,4.76
151,Bambanglipuro,8,ID,1547351185,86,-7.95,110.28,83.34,4.27
152,Provideniya,8,RU,1547351185,100,64.42,-173.23,-9.91,20.2
153,Gorontalo,12,ID,1547351186,65,0.54,123.06,86.85,2.19
154,Touros,40,BR,1547348400,88,-5.2,-35.46,77.0,2.24
155,Mayo,20,CA,1547348400,75,63.59,-135.9,-18.41,2.53
156,Goderich,24,CA,1547351190,88,43.74,-81.71,14.85,11.14
157,Tiksi,24,RU,1547351190,48,71.64,128.87,-29.44,3.83
158,Bandarbeyla,64,SO,1547351190,100,9.49,50.81,76.95,19.42
159,Douglas,90,US,1547348160,95,58.28,-134.39,35.06,3.38
160,Broome,80,GB,1547349600,81,52.47,1.45,51.8,20.8
161,Moldava nad Bodvou,90,SK,1547350200,92,48.61,21.0,26.6,3.36
162,Caarapo,20,BR,1547351191,66,-22.63,-54.82,79.74,4.54
163,Oktyabrskoye,0,RU,1547348400,74,56.73,85.44,-22.01,4.47
164,Aripuana,32,BR,1547351195,93,-9.17,-60.63,75.51,0.96
165,Kapuskasing,5,CA,1547348400,75,49.42,-82.43,-20.21,3.36
166,Eirunepe,44,BR,1547351195,96,-6.66,-69.87,72.81,2.08
167,Prieska,0,ZA,1547351196,79,-29.67,22.74,55.35,4.05
168,Moron de la Frontera,0,ES,1547348400,73,37.12,-5.45,39.2,3.36
169,Mazatlan,5,MX,1547347440,28,23.22,-106.42,80.6,4.7
170,Forbes,36,AU,1547351197,70,-33.38,148.01,89.64,7.9
171,Ostrovnoy,64,RU,1547351197,90,68.05,39.51,20.34,10.76
172,Gat,0,SN,1547348400,88,14.69,-16.54,68.0,13.87
173,Port Hawkesbury,90,CA,1547348760,84,45.62,-61.36,8.6,11.41
174,Two Rivers,90,US,1547348160,78,44.15,-87.57,30.02,6.93
175,Tasiilaq,36,GL,1547347800,67,65.61,-37.64,17.6,1.12
176,Salinas,90,US,1547350200,81,36.67,-121.66,55.04,4.09
177,Chernyshevskiy,56,RU,1547351200,42,63.01,112.47,-14.14,4.09
178,Kodiak,90,US,1547350500,97,39.95,-94.76,32.0,13.87
179,Mareeba,8,AU,1547348400,62,-16.99,145.42,87.8,16.11
180,Dawei,0,MM,1547351200,65,14.07,98.19,83.07,2.48
181,Arraial do Cabo,0,BR,1547351201,90,-22.97,-42.02,76.5,13.27
182,Bambous Virieux,40,MU,1547348400,78,-20.34,57.76,80.6,11.41
183,Washington DC.,90,US,1547350500,88,38.9,-77.04,30.92,3.83
184,Coquimbo,0,CL,1547348400,87,-29.95,-71.34,60.8,4.7
185,Huilong,92,CN,1547351204,96,28.89,110.18,38.16,3.09
186,Ketchikan,90,US,1547350200,81,55.34,-131.65,48.92,10.29
187,Petropavlovsk-Kamchatskiy,76,RU,1547348400,54,53.05,158.65,28.4,4.47
188,Colares,0,PT,1547348400,86,38.8,-9.45,41.0,3.36
189,Padang,20,ID,1547348400,74,-0.92,100.36,86.0,3.36
190,Jackson,90,US,1547350500,100,35.61,-88.82,50.0,4.7
191,Lompoc,1,US,1547349300,89,34.64,-120.46,55.04,2.75
192,Belgrade,40,RS,1547350200,86,44.82,20.46,33.8,8.05
193,Vallenar,0,CL,1547351206,90,-28.58,-70.76,53.01,2.19
194,Los Llanos de Aridane,0,ES,1547348400,72,28.66,-17.92,59.0,8.05
195,Ponta Delgada,75,PT,1547348400,72,37.73,-25.67,59.0,11.41
196,Fortuna,0,ES,1547348400,64,38.18,-1.13,41.0,8.05
197,Sidhauli,0,IN,1547346600,87,27.28,80.84,50.0,2.24
198,Constitucion,5,MX,1547347380,43,23.99,-104.67,55.4,9.17
199,Esperance,20,TT,1547348400,88,10.24,-61.45,73.4,5.99
200,Cherskiy,44,RU,1547351209,52,68.75,161.3,-17.65,1.81
201,Mwene-Ditu,48,CD,1547351210,99,-7.01,23.45,66.78,6.33
202,Linxia,44,CN,1547351211,41,35.6,103.21,20.79,3.53
203,Necochea,76,AR,1547351212,95,-38.55,-58.74,64.08,9.57
204,Naberera,0,TZ,1547351144,86,-4.2,36.93,62.82,5.5
205,Tambun,75,MY,1547348400,62,4.62,101.14,86.0,9.17
206,Harper,1,US,1547350500,73,30.3,-99.24,43.7,8.12
207,Lasa,75,CY,1547348400,62,34.92,32.53,57.2,13.87
208,Caraballeda,20,VE,1547348400,78,10.61,-66.85,77.0,12.15
209,Xuzhou,0,CN,1547351214,78,34.27,117.18,45.54,2.98
210,Saldanha,0,PT,1547351214,79,41.42,-6.55,18.81,3.09
211,Moussoro,0,TD,1547351214,33,13.64,16.49,61.02,11.59
212,La Peca,48,PE,1547351216,96,-5.61,-78.44,64.8,1.7
213,Namatanai,88,PG,1547351216,100,-3.66,152.44,82.89,17.47
214,Meulaboh,56,ID,1547351216,100,4.14,96.13,79.56,4.5
215,Hai Duong,90,VN,1547348400,88,20.94,106.32,69.8,4.7
216,Hilo,40,US,1547347980,66,19.71,-155.08,75.02,6.93
217,Dauriya,12,RU,1547351219,54,49.93,116.85,-1.72,3.87
218,Xuddur,0,SO,1547351220,75,4.12,43.89,64.71,12.1
219,Zlitan,92,LY,1547351220,100,32.47,14.57,49.32,16.8
220,Beloha,80,MG,1547351222,94,-25.17,45.06,72.63,3.71
221,Hecun,8,CN,1547351222,80,29.94,119.31,44.46,3.6
222,Acajutla,0,SV,1547351090,86,13.59,-89.83,71.73,2.53
223,Kota Kinabalu,75,MY,1547348400,66,5.98,116.07,89.6,4.7
224,San Cristobal,90,EC,1547348400,100,-0.39,-78.55,55.4,3.36
225,Nirmal,0,IN,1547351229,81,19.09,78.35,66.06,6.06
226,Phuthaditjhaba,0,ZA,1547351229,64,-28.53,28.82,41.31,2.37
227,Bredasdorp,24,ZA,1547348400,67,-34.53,20.04,62.6,9.17
228,Mongo,12,CF,1547351229,82,4.83,22.92,70.29,2.08
229,Xingyi,0,CN,1547351230,66,24.19,102.82,60.66,3.49
230,Chokurdakh,80,RU,1547351230,37,70.62,147.9,-24.22,8.23
231,Mahon,75,IE,1547350200,87,51.89,-8.4,46.4,12.75
232,Castro,0,CL,1547348400,93,-42.48,-73.76,42.8,5.82
233,Kolokani,8,ML,1547351239,30,13.58,-8.03,64.8,9.31
234,Jalu,0,LY,1547351239,64,29.03,21.55,47.43,17.4
235,Atar,0,MR,1547351243,27,20.52,-13.05,51.93,7.63
236,Ancud,48,CL,1547348400,93,-41.87,-73.83,42.8,5.82
237,Khomutovo,80,RU,1547351244,84,52.85,37.45,17.82,11.92
238,Roald,92,NO,1547349600,86,62.58,6.12,41.0,14.99
239,Airai,12,TL,1547351052,51,-8.93,125.41,87.93,1.97
240,Anchorage,90,US,1547349180,89,61.22,-149.89,14.0,3.36
241,Gunzenhausen,90,DE,1547349900,100,49.11,10.75,39.2,13.87
242,Nelson Bay,40,AU,1547348400,65,-32.72,152.14,78.8,16.11
243,Kyabe,8,TD,1547351246,54,9.45,18.94,62.73,2.71
244,Pangnirtung,8,CA,1547351047,58,66.15,-65.72,-32.86,3.04
245,Imeni Poliny Osipenko,64,RU,1547351247,73,52.42,136.49,-10.81,3.83
246,Puerto Leguizamo,36,CO,1547351249,95,-0.19,-74.78,73.8,2.3
247,Kavieng,48,PG,1547350990,100,-2.57,150.8,82.98,11.77
248,Taksimo,32,RU,1547351249,51,56.36,114.84,-19.63,0.51
249,Omsukchan,56,RU,1547351251,77,62.53,155.8,-9.19,3.31
250,Saint Anthony,1,US,1547348160,83,43.97,-111.68,10.04,6.93
251,Awash,0,ET,1547351252,75,8.99,40.17,45.36,2.3
252,Ferme-Neuve,0,CA,1547351253,65,46.7,-75.45,-8.74,4.54
253,Emerald,0,AU,1547348400,26,-23.53,148.16,91.4,16.11
254,Lorengau,76,PG,1547351136,99,-2.02,147.27,83.43,13.44
255,Paamiut,92,GL,1547351138,97,61.99,-49.67,32.49,23.96
256,Jimeta,12,NG,1547351259,72,9.28,12.44,60.21,2.04
257,Elizabeth City,90,US,1547350500,95,36.3,-76.22,42.08,7.56
258,Vagay,80,RU,1547351264,77,57.94,69.02,12.96,12.88
259,Taoudenni,0,ML,1547351265,28,22.68,-3.98,45.72,13.6
260,Inirida,24,CO,1547351267,95,3.87,-67.92,75.42,2.53
261,Tyup,0,KG,1547351267,90,42.73,78.36,-4.15,3.38
262,Sobolevo,88,RU,1547351267,91,54.43,31.9,26.28,8.34
263,Kahului,40,US,1547348160,62,20.89,-156.47,80.06,5.82
264,Ranong,75,TH,1547348400,74,9.96,98.62,86.0,4.7
265,Mocuba,80,MZ,1547351269,93,-16.84,36.99,74.16,5.21
266,Chernushka,92,RU,1547351272,91,56.5,56.08,31.77,16.84
267,Pochutla,0,MX,1547351272,100,15.74,-96.47,78.12,4.61
268,Nouadhibou,0,MR,1547351273,85,20.93,-17.03,58.68,6.29
269,Maragogi,92,BR,1547351273,100,-9.01,-35.22,73.89,5.1
270,Caravelas,76,BR,1547351273,100,-17.73,-39.27,80.19,12.33
271,Buala,24,SB,1547351275,78,-8.15,159.59,87.12,9.42
272,Srednekolymsk,80,RU,1547351275,31,67.46,153.71,-20.89,3.49
273,Am Timan,8,TD,1547351275,38,11.04,20.28,63.18,5.39
274,Matara,92,PE,1547351275,95,-13.74,-72.9,45.27,1.74
275,Avera,90,US,1547350500,93,33.19,-82.53,51.8,6.93
276,Bar Harbor,1,US,1547348160,72,44.39,-68.2,6.98,3.36
277,Nabire,48,ID,1547351279,92,-3.36,135.5,77.4,2.59
278,Banapur,0,IN,1547351280,93,19.78,85.18,67.14,4.88
279,Farafangana,80,MG,1547351280,100,-22.82,47.83,76.68,5.84
280,Inongo,32,CD,1547351283,98,-1.93,18.29,72.81,3.53
281,Codrington,40,AU,1547348400,45,-28.95,153.24,89.6,12.75
282,Oga,8,NG,1547351283,70,8.18,5.65,65.16,2.37
283,South Sioux City,90,US,1547349300,92,42.47,-96.41,28.94,6.93
284,Leshukonskoye,80,RU,1547351047,80,64.9,45.76,22.59,8.9
285,Muros,0,ES,1547348400,86,42.77,-9.06,41.0,3.36
286,Tungor,56,RU,1547351284,83,53.39,142.95,11.79,14.79
287,Tuatapere,8,NZ,1547351289,86,-46.13,167.69,58.68,10.87
288,Kruisfontein,0,ZA,1547351254,92,-34.0,24.73,60.66,6.89
289,Neryungri,24,RU,1547351289,41,56.66,124.71,-15.13,2.98
290,Poum,40,MK,1547350200,85,41.28,20.71,10.4,6.93
291,Zhigansk,32,RU,1547351260,54,66.77,123.37,-18.46,10.13
292,Ankang,0,CN,1547351290,61,32.73,108.99,36.0,1.97
293,Dikson,76,RU,1547351290,100,73.51,80.55,-14.86,31.9
294,Gasa,0,BT,1547351290,73,27.91,89.73,-1.0,3.53
295,Bogotol,12,RU,1547351291,27,56.21,89.53,-18.82,2.86
296,Ikongo,80,MG,1547351291,95,-21.88,47.44,66.96,2.3
297,Kawalu,0,ID,1547351292,82,-7.38,108.21,77.4,2.37
298,Kavaratti,0,IN,1547351292,100,10.57,72.64,81.54,10.54
299,Oakley,90,US,1547349300,100,39.13,-100.86,26.6,6.93
300,Zhanaozen,92,KZ,1547351020,88,43.35,52.85,34.47,6.89
301,Port Hardy,90,CA,1547348400,87,50.7,-127.42,46.4,19.46
302,Bekhtery,75,UA,1547350200,86,46.25,32.3,28.4,2.24
303,Saint-Joseph,20,FR,1547350200,80,43.56,6.97,48.2,5.82
304,Mao,48,DO,1547351297,94,19.55,-71.08,71.55,6.78
305,Dwarka,40,IN,1547348400,82,28.58,77.04,57.2,3.36
306,Kapiri Mposhi,92,ZM,1547351297,99,-13.97,28.68,62.46,7.29
307,Trinidad,0,UY,1547351190,84,-33.52,-56.9,66.51,9.35
308,Chuy,88,UY,1547350981,90,-33.69,-53.46,70.2,12.03
309,Alugan,88,PH,1547351298,93,12.22,125.48,80.46,14.12
310,Darnah,64,LY,1547351298,100,32.77,22.64,58.32,21.54
311,North Platte,90,US,1547347980,92,41.12,-100.77,24.98,5.5
312,Vichy,90,FR,1547348400,70,46.12,3.42,44.6,4.7
313,Dudinka,68,RU,1547351300,57,69.41,86.18,-19.63,29.21
314,Turan,0,RU,1547351300,25,52.15,93.92,-19.99,1.7
315,Kalmunai,88,LK,1547351300,100,7.42,81.82,73.89,5.77
316,Edd,0,ER,1547351301,54,13.93,41.69,52.47,4.38
317,Kampot,20,KH,1547348400,66,10.62,104.18,84.2,9.17
318,Mayumba,92,GA,1547351309,99,-3.44,10.65,79.2,4.83
319,Trebukhiv,90,UA,1547350200,86,50.48,30.9,30.2,4.47
320,Mayya,12,RU,1547350200,57,61.74,130.28,-43.61,4.47
321,Sinnamary,56,GF,1547351314,95,5.38,-52.96,78.57,10.36
322,Whyalla,0,AU,1547348400,26,-33.04,137.58,82.4,18.34
323,Portland,75,US,1547348160,57,45.52,-122.67,46.04,13.87
324,Lavrentiya,8,RU,1547351278,92,65.58,-170.99,-11.08,28.7
325,Fort Nelson,90,CA,1547348400,77,58.81,-122.69,1.4,6.93
326,Asyut,92,EG,1547351317,63,27.18,31.19,44.19,6.62
327,Ojinaga,1,US,1547350500,55,29.56,-104.41,52.88,10.29
328,Bilibino,20,RU,1547350967,0,68.06,166.44,-27.37,2.3
329,Kaeo,92,NZ,1547351318,51,-35.1,173.78,77.31,9.8
330,Marsa Matruh,0,EG,1547351318,72,31.35,27.25,47.88,18.86
331,Ouallam,0,NE,1547351319,29,14.32,2.08,61.83,10.36
332,Williamsport,90,US,1547348040,48,41.25,-77.0,28.04,3.36
333,Saint-Augustin,90,FR,1547348400,93,44.83,-0.61,50.0,6.93
334,Ngora,8,UG,1547351322,79,1.46,33.78,62.01,3.27
335,Camocim,80,BR,1547351322,100,-2.9,-40.84,72.72,2.71
336,Inuvik,20,CA,1547348400,66,68.36,-133.71,-32.81,3.36
337,San Patricio,8,PY,1547351295,95,-26.98,-56.83,74.88,3.87
338,Khash,0,IR,1547351328,69,28.22,61.21,22.05,2.53
339,Taganak,75,PH,1547348400,74,6.08,118.3,86.0,8.05
340,Correntina,24,BR,1547351328,84,-13.34,-44.63,71.82,3.2
341,Bandiagara,0,ML,1547348400,22,14.35,-3.61,69.8,13.87
342,Tual,80,ID,1547351253,100,-5.67,132.75,83.16,13.78
343,Dekar,0,BW,1547351335,52,-21.53,21.93,62.37,2.82
344,Kimbe,56,PG,1547351335,100,-5.56,150.15,81.36,6.06
345,Hasaki,20,JP,1547348400,45,35.73,140.83,48.2,14.99
346,Aberdeen,90,US,1547347980,91,45.47,-98.49,21.02,1.86
347,Puerto del Rosario,0,ES,1547348400,87,28.5,-13.86,60.8,5.82
348,Vanimo,48,PG,1547351337,100,-2.67,141.3,82.8,17.13
349,Port Jervis,90,US,1547351100,57,41.38,-74.69,30.2,5.82
350,Green River,90,US,1547348040,90,41.53,-109.47,15.08,3.36
351,Launceston,0,AU,1547348400,20,-41.43,147.14,77.0,8.05
352,Cabo San Lucas,20,MX,1547347380,82,22.89,-109.91,68.0,2.37
353,Rio Grande,40,BR,1547348400,94,-32.03,-52.1,71.6,4.7
354,Vila,0,IT,1547349600,73,45.18,8.4,41.0,2.24
355,San Vicente,20,SV,1547347800,78,13.64,-88.78,77.0,4.7
356,Puerto Ayacucho,92,CO,1547351339,74,5.66,-67.63,77.76,4.88
357,Lagoa,0,PT,1547348400,83,37.14,-8.45,48.2,5.82
358,Itarema,56,BR,1547351340,97,-2.92,-39.92,73.71,1.25
359,Rondonopolis,44,BR,1547351306,90,-16.46,-54.64,72.45,2.82
360,Morondava,76,MG,1547351340,100,-20.3,44.28,77.31,3.76
361,Aykhal,24,RU,1547351340,47,65.95,111.51,-30.25,2.86
362,Leningradskiy,20,RU,1547351298,100,69.38,178.42,-17.65,8.63
363,Bisira,0,PA,1547351341,90,8.52,-81.71,66.69,3.27
364,Flin Flon,64,CA,1547351341,83,54.77,-101.88,14.04,5.32
365,Dumas,0,IN,1547346600,87,21.09,72.71,57.2,7.56
366,El Bagre,68,CO,1547351342,68,7.6,-74.8,80.91,2.59
367,Deputatskiy,48,RU,1547351298,0,69.3,139.9,-31.69,2.82
368,Lazaro Cardenas,5,MX,1547347560,76,28.39,-105.62,46.4,3.36
369,Moissala,8,TD,1547351345,59,8.34,17.77,63.9,2.86
370,Oran,0,DZ,1547348400,86,35.7,-0.65,33.8,2.24
371,Torbay,90,CA,1547348400,92,47.66,-52.73,26.6,12.75
372,East London,88,ZA,1547350887,99,-33.02,27.91,72.81,7.07
373,Rach Gia,20,VN,1547348400,70,10.02,105.08,84.2,5.82
374,Kishtwar,68,IN,1547351349,70,33.31,75.77,20.88,1.7
375,Bahia de Caraquez,40,EC,1547348400,88,-0.6,-80.42,77.0,4.7
376,Guerrero Negro,64,MX,1547351349,95,27.97,-114.04,57.42,4.05
377,Vestmannaeyjar,36,IS,1547351311,100,63.44,-20.27,34.92,10.92
378,Cuamba,92,MZ,1547351351,99,-14.8,36.54,68.49,6.62
379,Kununurra,12,AU,1547348400,58,-15.77,128.74,87.8,3.36
380,Osoyoos,75,CA,1547348880,85,49.03,-119.47,33.8,5.82
381,Erenhot,0,CN,1547351358,58,43.65,111.97,11.34,4.88
382,Praxedis Guerrero,90,MX,1547348280,41,31.37,-106.02,50.0,9.17
383,Tabuk,20,PH,1547351359,64,17.41,121.44,74.34,2.37
384,Pisco,0,PE,1547348400,88,-13.71,-76.2,71.6,14.99
385,Hami,92,CN,1547351359,71,42.84,93.51,13.59,4.38
386,Mezhdurechensk,0,RU,1547351362,74,53.69,88.07,-7.39,2.3
387,Adrar,0,DZ,1547348400,44,27.87,-0.29,37.4,9.17
388,Tromso,90,NO,1547349600,92,69.65,18.96,26.6,9.17
389,Eureka,1,US,1547350500,100,40.8,-124.16,51.8,4.7
390,Clyde River,1,CA,1547348400,73,70.47,-68.59,-34.61,5.82
391,Trincomalee,92,LK,1547351365,100,8.58,81.23,75.15,6.4
392,Port Macquarie,0,AU,1547348400,40,-31.43,152.91,86.0,14.99
393,Sorong,12,ID,1547351366,100,-0.86,131.25,82.53,7.85
394,Shaunavon,0,CA,1547351366,70,49.65,-108.41,19.26,2.86
395,Pierreville,90,CA,1547348400,84,46.07,-72.81,-2.21,3.76
396,Mandalgovi,8,MN,1547351366,57,45.76,106.27,2.88,9.75
397,Riyadh,0,SA,1547348400,30,24.63,46.72,53.6,3.36
398,Gambela,0,ET,1547351336,69,8.25,34.59,51.12,2.53
399,Cangzhou,0,CN,1547351367,55,38.3,116.85,38.52,5.5
400,Santa Flavia,8,CL,1547351367,68,-51.55,-72.35,45.36,20.65
401,Sembakung,40,ID,1547348400,70,3.82,117.25,86.0,6.93
402,Solnechnyy,36,RU,1547351368,62,50.72,136.64,-7.57,3.31
403,Izumo,20,JP,1547348400,57,35.37,132.75,50.0,5.82
404,Ilhabela,0,BR,1547351368,100,-23.78,-45.36,79.02,11.43
405,Isfana,0,KG,1547350200,74,39.84,69.53,35.6,20.13
406,Seoul,1,KR,1547350200,44,37.57,126.98,41.0,4.7
407,Conde,0,BR,1547351373,94,-11.81,-37.61,75.51,5.21
408,Rosetown,0,CA,1547351373,46,51.55,-107.99,6.21,2.86
409,Warren,90,US,1547350560,72,42.48,-83.03,27.14,12.75
410,Pathalgaon,0,IN,1547351095,83,22.56,83.46,57.78,2.19
411,Causapscal,68,CA,1547351374,69,48.35,-67.23,15.12,10.25
412,Sant Feliu de Guixols,0,ES,1547348400,100,41.78,3.03,33.8,4.7
413,Jacareacanga,8,BR,1547351374,79,-6.22,-57.76,78.3,3.31
414,Andros Town,75,BS,1547348400,69,24.73,-77.79,73.4,17.22
415,Umm Lajj,76,SA,1547351375,100,25.02,37.27,69.39,8.23
416,Sipe Sipe,75,BO,1547348400,52,-17.45,-66.36,66.2,10.29
417,Ahipara,68,NZ,1547351375,69,-35.17,173.16,73.35,10.36
418,Murakeresztur,80,HU,1547351376,87,46.36,16.88,27.09,3.53
419,Abu Zabad,0,SD,1547351376,67,12.35,29.25,57.96,3.49
420,Aklavik,20,CA,1547348400,66,68.22,-135.01,-32.81,3.36
421,Havoysund,56,NO,1547349600,80,71.0,24.66,30.2,21.92
422,Half Moon Bay,40,US,1547348340,59,37.46,-122.43,59.0,8.05
423,Collie,0,AU,1547351377,34,-33.36,116.15,82.44,15.84
424,Ossora,0,RU,1547351377,90,59.24,163.07,3.78,4.99
425,Umm Kaddadah,8,SD,1547351379,72,13.6,26.69,50.94,2.75
426,Shiraz,0,IR,1547350200,59,29.61,52.54,33.8,2.19
427,Riverton,90,US,1547348700,87,43.02,-108.38,8.96,1.59
428,Mogadishu,68,SO,1547351101,100,2.04,45.34,78.93,22.32
429,Wamba,64,CD,1547351381,79,2.14,27.99,70.65,2.04
430,Majalgaon,0,IN,1547351381,72,19.16,76.21,63.27,2.75
431,Fare,100,PF,1547351381,100,-16.7,-151.02,82.44,23.55
432,Brae,92,GB,1547349600,87,60.4,-1.35,48.2,27.51
433,Deneysville,0,ZA,1547351381,100,-26.89,28.1,60.3,6.51
434,Tongling,0,CN,1547351382,94,30.93,117.81,46.44,4.38
435,Santa Rosa,90,AR,1547346900,82,-36.62,-64.29,62.6,6.93
436,Nangong,0,CN,1547351382,69,37.36,115.37,38.79,3.09
437,Hays,90,US,1547349360,92,38.88,-99.33,26.6,9.17
438,Egvekinot,12,RU,1547351347,0,66.32,-179.17,-39.34,4.61
439,Tabou,12,CI,1547351385,100,4.42,-7.36,82.26,6.11
440,Olga,1,US,1547350500,81,34.11,-118.17,57.92,1.48
441,Anadyr,0,RU,1547348400,68,64.73,177.51,-18.41,4.47
442,Alice Springs,0,AU,1547348640,12,-23.7,133.88,105.8,17.22
443,Severomuysk,24,RU,1547351386,49,56.17,113.57,-20.17,1.81
444,Parry Sound,0,CA,1547351391,61,45.34,-80.04,-7.3,2.75
445,Majene,0,ID,1547351391,95,-3.54,118.97,84.33,3.71
446,Sabha,0,LY,1547351391,78,27.03,14.43,25.38,5.77
447,Mehamn,80,NO,1547351392,87,71.03,27.85,30.33,11.1
448,Urucara,0,BR,1547351393,90,-2.54,-57.76,76.32,3.98
449,Kitui,0,KE,1547351394,63,-1.37,38.02,55.62,4.27
450,Marsh Harbour,24,BS,1547351388,100,26.54,-77.06,74.34,14.61
451,Okha,56,RU,1547351394,83,53.59,142.95,11.79,14.79
452,Mitu,44,IR,1547351394,92,36.2,46.09,24.12,3.27
453,Jaca,0,ES,1547348400,80,42.57,-0.55,33.8,6.93
454,Cassilandia,12,BR,1547351395,73,-19.11,-51.73,72.54,3.31
455,Manadhoo,0,MV,1547351395,100,5.77,73.38,81.81,8.86
456,Nizhnevartovsk,40,RU,1547350200,84,60.93,76.58,3.2,15.66
457,Boa Vista,0,BR,1547348400,65,2.82,-60.67,80.6,13.87
458,Ampanihy,76,MG,1547351400,92,-24.69,44.75,71.46,3.04
459,Maun,8,BW,1547351400,72,-19.99,23.42,70.74,4.54
460,Rawson,0,AR,1547350982,51,-43.3,-65.11,60.48,10.8
461,Cockburn Town,88,TC,1547351400,100,21.46,-71.14,75.15,17.81
462,Lieksa,0,FI,1547351400,88,63.32,30.02,18.99,5.32
463,Synya,76,RU,1547351401,81,65.37,58.04,14.49,11.36
464,Souillac,90,FR,1547348400,93,45.6,-0.6,48.2,5.82
465,Quatre Cocos,40,MU,1547348400,78,-20.21,57.76,80.6,11.41
466,Killybegs,92,IE,1547351401,97,54.63,-8.45,48.69,22.66
467,Yerbogachen,8,RU,1547351402,55,61.28,108.01,-19.27,4.5
468,Sokoni,92,CD,1547351403,99,-12.89,28.78,63.54,1.59
469,Tambacounda,0,SN,1547348400,32,13.77,-13.67,69.8,4.7
470,Payakumbuh,88,ID,1547351405,91,-0.23,100.63,77.67,2.98
471,Sioux Lookout,90,CA,1547348400,85,50.1,-91.92,17.6,6.93
472,Sacramento,1,US,1547350500,93,38.58,-121.49,53.6,7.52
473,Falavarjan,68,IR,1547350200,86,32.56,51.51,37.4,2.59
474,Maniitsoq,44,GL,1547351406,100,65.42,-52.9,6.84,5.84
475,Wagga Wagga,12,AU,1547348400,29,-35.12,147.37,98.6,14.99
476,Opuwo,0,NA,1547351301,53,-18.06,13.84,52.65,3.27
477,Torrijos,0,ES,1547351407,68,39.98,-4.28,22.41,4.05
478,The Valley,40,AI,1547348400,83,18.22,-63.06,75.2,5.82
479,Keti Bandar,0,PK,1547351407,100,24.14,67.45,65.61,13.33
480,La Pila,40,EC,1547348400,88,-1.11,-80.58,77.0,4.7
481,Kulhudhuffushi,0,MV,1547351408,100,6.62,73.07,81.72,7.9
482,Yuncheng,48,CN,1547351408,66,35.03,111.0,33.66,0.74
483,Thinadhoo,20,MV,1547351408,100,0.53,72.93,82.26,8.57
484,Warmbad,80,DE,1547349600,86,50.67,13.08,39.2,12.75
485,Jalapa,20,GT,1547348400,72,14.63,-89.98,62.6,13.87
486,Gikongoro,80,RW,1547351410,92,-2.46,29.57,56.16,1.07
487,Santa Isabel,80,CO,1547351410,75,4.71,-75.1,66.42,2.98
488,Cairns,56,AU,1547348400,62,-16.92,145.77,87.8,16.11
489,Raikot,92,IN,1547351411,94,30.65,75.6,52.2,3.83
490,Tilichiki,0,RU,1547351411,67,60.47,166.1,-9.28,2.86
491,Koslan,88,RU,1547351411,73,63.46,48.9,16.56,7.74
492,Benguela,48,AO,1547351412,100,-12.58,13.4,73.98,2.86
493,Naze,12,NG,1547351412,88,5.43,7.07,72.0,6.62
494,Jutai,68,BR,1547351412,96,-1.71,-47.89,74.88,4.76
495,Hofn,92,IS,1547351353,100,64.25,-15.21,36.54,19.64
496,Kikwit,44,CD,1547351413,97,-5.04,18.82,69.48,2.86
497,Balezino,80,RU,1547351413,84,57.97,53.01,16.29,4.99
498,Vila Velha,75,BR,1547348400,83,-3.71,-38.6,80.6,3.36
499,Comodoro Rivadavia,0,AR,1547348400,25,-45.87,-67.48,64.4,10.29
500,Ust-Kuyga,36,RU,1547351413,0,70.0,135.55,-36.1,2.86
501,Shar,8,NG,1547351414,69,7.3,8.73,67.68,2.53
502,Krasne,90,UA,1547350200,80,49.91,24.61,30.2,11.18
503,Nicoya,0,CR,1547348400,51,10.15,-85.45,80.6,19.46
504,Tsiroanomandidy,24,MG,1547351415,94,-18.77,46.05,62.46,2.82
505,La Libertad,75,PE,1547348400,87,-16.38,-71.56,53.6,3.36
506,Norman,90,US,1547350800,86,35.22,-97.44,36.14,13.87
507,College,1,US,1547348280,72,64.86,-147.8,-5.08,4.32
508,Yarada,8,IN,1547350200,83,17.65,83.27,71.6,5.82
509,Lubango,0,AO,1547351416,83,-14.92,13.49,53.46,0.36
510,Namibe,0,AO,1547351416,100,-15.19,12.15,72.63,8.75
511,San Quintin,0,PH,1547351417,62,17.54,120.52,79.11,3.53
512,Svetlogorsk,90,RU,1547350200,92,53.14,59.15,21.2,17.9
513,Port Hueneme,20,US,1547348220,68,34.15,-119.2,55.94,10.29
514,Manavalakurichi,20,IN,1547350200,74,8.13,77.3,82.4,3.36
515,Serramanna,75,IT,1547349600,81,39.42,8.92,51.8,9.17
516,Akdepe,40,TM,1547350200,80,42.05,59.39,35.6,16.11
517,Sarangani,92,PH,1547351418,100,5.4,125.46,75.15,2.48
518,Upata,20,VE,1547351418,74,8.02,-62.41,73.08,7.9
519,Diego de Almagro,0,CL,1547351418,84,-26.39,-70.05,54.99,1.86
520,Port Blair,0,IN,1547351419,98,11.67,92.75,83.25,12.77
521,Voronovytsya,90,UA,1547350200,74,49.11,28.68,28.4,8.95
522,Rio Gallegos,0,AR,1547348400,53,-51.62,-69.22,50.0,18.34
523,Coos Bay,1,US,1547348160,92,43.37,-124.22,50.0,1.59
524,Simdega,0,IN,1547351420,82,22.61,84.51,60.21,3.6
525,Praia da Vitoria,20,PT,1547348400,82,38.73,-27.07,59.0,22.32
526,Mount Gambier,0,AU,1547348400,42,-37.83,140.78,80.6,18.34
527,Changqing,0,CN,1547348400,81,31.81,117.24,42.8,4.47
528,Coalinga,1,US,1547348160,79,36.14,-120.36,53.06,2.59
529,Jalingo,8,NG,1547351421,39,10.3,10.93,63.72,8.34
530,Berlin,75,DE,1547349600,93,52.52,13.39,41.0,12.75
531,Praya,40,ID,1547348400,66,-8.71,116.27,89.6,3.36
532,Soyo,48,AO,1547351422,97,-6.13,12.37,75.33,3.38
533,Cristalina,0,BR,1547351422,87,-16.77,-47.61,67.68,2.59
534,Biri,88,NO,1547351422,83,60.95,10.61,12.33,2.19
535,Bontang,8,ID,1547351359,90,0.12,117.47,84.78,8.52
536,Comandau,8,RO,1547351423,65,45.77,26.27,12.69,3.53
537,Yasnyy,88,RU,1547351425,90,64.04,44.09,25.74,6.51
538,Santa Cruz,90,US,1547350200,81,36.97,-122.03,57.2,2.26
539,Ishigaki,75,JP,1547348400,77,24.34,124.16,69.8,13.87
540,Iguape,88,BR,1547351427,100,-24.7,-47.56,76.86,5.5
541,Russell,75,AR,1547348400,77,-33.01,-68.8,69.8,6.93
542,Kieta,80,PG,1547351430,89,-6.22,155.63,84.51,3.76
543,Fort Wellington,8,GY,1547351430,100,6.4,-57.6,77.76,14.27
544,Anito,44,PH,1547351430,97,12.45,125.29,80.91,17.69
545,Qaqortoq,92,GL,1547347800,96,60.72,-46.03,32.0,8.05
546,Birao,0,CF,1547351441,62,10.3,22.78,62.64,5.5
547,Sambava,68,MG,1547351382,100,-14.27,50.17,78.48,7.78
548,Gelibolu,75,TR,1547347800,80,40.41,26.67,39.2,13.87
549,Najran,0,SA,1547348400,77,17.54,44.22,50.0,2.48
550,Zeya,44,RU,1547351442,60,53.74,127.27,-3.34,2.86
551,Dongzhen,24,CN,1547351451,73,43.33,129.73,19.62,2.75
552,Shingu,20,JP,1547348400,100,33.72,135.99,53.6,12.75
553,Grand-Santi,76,GF,1547351452,99,4.27,-54.38,71.91,2.3
554,Katsuura,40,JP,1547348400,53,33.93,134.5,50.0,12.75
555,Ginda,92,IN,1547351453,100,30.69,78.49,32.04,1.59
556,Livingston,75,US,1547348700,93,32.58,-88.19,57.92,3.36
557,Baykit,0,RU,1547351456,0,61.68,96.39,-35.47,3.04
558,Irtyshskiy,88,RU,1547351456,83,58.33,68.13,14.76,11.43
559,Evensk,0,RU,1547351456,100,61.92,159.24,2.97,6.78
560,Nongan,75,CN,1547348400,79,44.43,125.17,26.6,8.95
561,Maputo,75,MZ,1547348400,73,-25.97,32.57,75.2,10.29
562,Xichang,0,CN,1547351457,17,27.88,102.25,58.95,1.97
563,Mega,0,ET,1547351247,30,4.06,38.32,55.71,7.74
564,Khandyga,12,RU,1547351189,0,62.65,135.58,-41.59,2.82
565,Maldonado,0,UY,1547348400,82,-34.91,-54.96,68.0,11.41
566,Apricena,0,IT,1547351458,100,41.78,15.44,47.52,3.76
567,Maine-Soroa,0,NE,1547351459,48,13.21,12.02,62.91,10.87
568,Sumbawanga,20,TZ,1547348400,93,-7.95,31.62,60.8,2.19
569,Hamilton,90,BM,1547348100,77,32.3,-64.78,60.8,8.05
570,Kondinskoye,80,RU,1547351460,84,59.65,67.41,14.31,10.31
571,Sao Joao da Barra,48,BR,1547351460,96,-21.64,-41.05,79.38,14.67
572,Porosozero,0,RU,1547351460,88,62.72,32.71,18.81,6.89
573,North Bend,1,US,1547348160,92,43.41,-124.22,50.0,1.59
574,Kudahuvadhoo,88,MV,1547351461,100,2.67,72.89,81.99,11.25
575,Semey,0,KZ,1547350200,83,50.41,80.25,-4.01,6.71
576,Aden,0,YE,1547351462,100,12.79,45.03,76.32,16.96
577,North Myrtle Beach,75,US,1547350500,100,33.83,-78.68,48.2,5.82
578,Hay River,90,CA,1547348400,83,60.82,-115.79,-5.81,10.29
579,Isangel,64,VU,1547350978,100,-19.55,169.27,79.38,4.76
580,San Rafael del Sur,20,NI,1547348400,73,11.85,-86.44,75.2,4.7
581,Rundu,8,NA,1547351463,29,-17.91,19.77,68.76,9.75
582,High Level,20,CA,1547348400,84,58.52,-117.13,6.8,10.29
583,Barillas,75,ES,1547348400,65,41.97,-1.66,44.6,16.11
584,Hounde,0,BF,1547351463,32,11.5,-3.52,64.8,8.01
585,Bullhead City,40,US,1547350500,41,35.15,-114.57,57.92,3.36
586,Altay,0,CN,1547351465,30,47.83,88.13,-10.9,1.86
587,Loei,20,TH,1547348400,69,17.49,101.72,78.8,3.36
588,Durango,1,US,1547347980,100,37.28,-107.88,33.98,8.05
589,Khorramshahr,90,IR,1547348400,57,30.43,48.18,51.8,4.7
590,Marawi,88,PH,1547351263,70,8.0,124.29,79.11,3.38
591,Kuryk,92,KZ,1547351466,98,43.18,51.68,42.84,2.48
592,Noumea,75,NC,1547350200,62,-22.28,166.46,87.8,20.8
593,Mana,75,RS,1547350200,92,43.52,20.24,28.4,4.7
594,Morro Bay,40,US,1547348820,82,35.37,-120.85,55.04,4.7
595,Otane,100,NZ,1547351471,71,-39.89,176.62,69.48,3.31
596,Mattru,64,SL,1547351471,77,7.62,-11.83,77.58,4.61
597,Klaksvik,92,FO,1547349600,93,62.23,-6.59,41.0,14.99
598,Havelock,90,US,1547348940,96,34.88,-76.9,42.98,6.93
